{
  "slug": "plage-de-la-digue-tarnos",
  "nom": "Plage de la Digue",
  "description": "Il est possible pour les personnes à mobilité réduite de s'immerger à l'aide d'un tiralo, si les conditions de baignade le permettent (juillet / août seulement).. Plage \"Plage de la Digue\" située à Tarnos, répertoriée sur OpenStreetMap comme accessible aux personnes en situation de handicap. Équipements et caractéristiques renseignés par les contributeurs locaux : accessibilité fauteuil roulant limitée, sable fin. Les données OpenStreetMap sont mises à jour en continu par la communauté et vérifiées par recoupement avec les informations terrain. La mention d'accessibilité (tag wheelchair=limited) indique un effort d'aménagement pour l'accueil des PMR sur ce site balnéaire.",
  "commune": "Tarnos",
  "codePostal": "40220",
  "departement": "Landes",
  "region": "Nouvelle-Aquitaine",
  "latitude": 43.5318153,
  "longitude": -1.5212416,
  "photo": "https://upload.wikimedia.org/wikipedia/commons/thumb/b/b5/Plage_du_Metro_mar%C3%A9e_montante.jpg/1280px-Plage_du_Metro_mar%C3%A9e_montante.jpg",
  "photos": [],
  "noteGlobale": 4,
  "nombreAvis": 0,
  "actif": true,
  "verifiedAt": "2026-04-24",
  "verifiedBy": "openstreetmap",
  "accessibilites": [
    "CHEMIN_ACCES",
    "SABLE_COMPACT"
  ],
  "hebergements": [
    {
      "nom": "Hôtel Mercure Le Président",
      "type": "hôtel",
      "adresse": "Tarnos",
      "telephone": "+33 5 59 24 66 40",
      "latitude": 43.4818119,
      "longitude": -1.559779,
      "distanceKm": 6.4,
      "accessiblePMR": true
    },
    {
      "nom": "Palmito",
      "type": "hôtel",
      "adresse": "Tarnos",
      "telephone": "+33559241656",
      "siteWeb": "https://www.palmito-biarritz.com/fr",
      "latitude": 43.4819938,
      "longitude": -1.565769,
      "distanceKm": 6.6,
      "accessiblePMR": true
    },
    {
      "nom": "Le Gamaritz",
      "type": "hôtel",
      "adresse": "5 Perspective Côte des Basques, 64200, Biarritz",
      "telephone": "+33 559240023",
      "siteWeb": "https://hotel-biarritz-gamaritz.com/",
      "latitude": 43.4816058,
      "longitude": -1.5662182,
      "distanceKm": 6.7,
      "accessiblePMR": true
    },
    {
      "nom": "Ibis Budget",
      "type": "hôtel",
      "adresse": "Tarnos",
      "latitude": 43.4886905,
      "longitude": -1.4572935,
      "distanceKm": 7,
      "accessiblePMR": true
    },
    {
      "nom": "Le Lodge",
      "type": "hôtel",
      "adresse": "1180 Avenue du 11 Novembre 1918, 40440, Ondres",
      "telephone": "+33 5 59 45 27 02",
      "siteWeb": "https://hotel-le-lodge.com/",
      "latitude": 43.5689726,
      "longitude": -1.4426154,
      "distanceKm": 7.6,
      "accessiblePMR": true
    }
  ],
  "offresCulturelles": [
    {
      "nom": "L'Atalante",
      "type": "cinéma",
      "adresse": "Tarnos",
      "description": "L'Atalante, cinéma d'art et d'essai - Films, expositions, soirées. L’Atalante est un cinéma géré par une association, ouverte à tous ses spectateurs depuis sa création en 1990.",
      "telephone": "+33 5 59 55 52 98",
      "siteWeb": "https://atalante-cinema.org/",
      "latitude": 43.4955453,
      "longitude": -1.4713303,
      "distanceKm": 5.7,
      "accessiblePMR": true
    },
    {
      "nom": "Musée Basque et de l'histoire de Bayonne",
      "type": "musée",
      "adresse": "Tarnos",
      "description": "Situé dans une demeure portuaire de la ville, le musée propose une collection exceptionnelle de plus de 2 000 objets retraçant l'histoire du Pays Basque.",
      "latitude": 43.4910854,
      "longitude": -1.473799,
      "distanceKm": 5.9,
      "accessiblePMR": true
    },
    {
      "nom": "Musée de la Mer",
      "type": "musée",
      "adresse": "Tarnos",
      "siteWeb": "https://www.paysbasque.net/aquariums-et-musees/musee-de-la-mer-biarritz/",
      "latitude": 43.4833364,
      "longitude": -1.568191,
      "distanceKm": 6.6,
      "accessiblePMR": true
    },
    {
      "nom": "Musée Asiatica",
      "type": "musée",
      "adresse": "1 Rue Guy Petit, Tarnos",
      "telephone": "+33559227878",
      "latitude": 43.4781173,
      "longitude": -1.5553425,
      "distanceKm": 6.6,
      "accessiblePMR": true
    },
    {
      "nom": "Pop-up d'Artistes",
      "type": "galerie",
      "adresse": "Avenue du Portou, 64990, Saint-Pierre-d'Irube",
      "latitude": 43.480431,
      "longitude": -1.4442573,
      "distanceKm": 8.4,
      "accessiblePMR": true
    }
  ],
  "avis": []
}
